City_ID,City,Lat,Lng,Max Temp,Humidity,Cloudiness,Wind Speed,Country,Date
0,hermanus,-34.4187,19.2345,19.33,82,0,5.14,ZA,1670613556
1,hualmay,-11.0964,-77.6139,22.18,70,22,4.53,PE,1670613556
2,may pen,17.9645,-77.2451,30.56,48,35,2.61,JM,1670613557
3,yellowknife,62.456,-114.3525,-17.71,78,100,3.6,CA,1670613557
4,leshukonskoye,64.8989,45.7622,-12.32,94,100,3.84,RU,1670613558
5,valparaiso,-33.0393,-71.6273,28.13,76,0,7.2,CL,1670613408
6,ushuaia,-54.8,-68.3,9.81,62,40,2.06,AR,1670613559
7,mitsamiouli,-11.3847,43.2844,27.2,71,9,1.77,KM,1670613560
8,hobart,-42.8794,147.3294,10.92,88,100,2.06,AU,1670613333
9,provideniya,64.3833,-173.3,-2.25,77,88,10.17,RU,1670613560
10,nikolskoye,59.7035,30.7861,-1.06,92,91,3.46,RU,1670613560
11,egvekinot,66.3167,-179.1667,-13.89,97,100,1.41,RU,1670613561
12,bredasdorp,-34.5322,20.0403,20.73,71,0,4.3,ZA,1670613561
13,yumen,40.2833,97.2,-9.0,63,97,8.91,CN,1670613562
14,castro,-24.7911,-50.0119,29.5,46,1,0.78,BR,1670613434
15,upernavik,72.7868,-56.1549,0.74,79,100,9.06,GL,1670613563
16,rikitea,-23.1203,-134.9692,24.38,80,10,6.87,PF,1670613563
17,marsassoum,12.8275,-15.9806,29.1,51,38,4.4,SN,1670613564
18,bubaque,11.2833,-15.8333,27.38,77,3,6.66,GW,1670613564
19,acurenam,1.0322,10.6488,22.28,83,85,0.56,GQ,1670613565
20,shelburne,44.0787,-80.2041,-1.54,86,6,4.66,CA,1670613565
21,georgetown,5.4112,100.3354,25.96,88,20,3.6,MY,1670613298
22,solnechnyy,50.7214,136.6319,-16.12,94,97,0.66,RU,1670613566
23,albany,42.6001,-73.9662,4.26,51,3,1.34,US,1670613566
24,west wendover,40.7391,-114.0733,-0.44,86,100,1.54,US,1670613566
25,pisco,-13.7,-76.2167,25.03,57,0,8.23,PE,1670613567
26,mackay,-21.15,149.2,25.93,75,75,3.13,AU,1670613568
27,dandong,40.1292,124.3947,-3.9,65,100,2.12,CN,1670613568
28,punta arenas,-53.15,-70.9167,13.01,66,75,5.14,CL,1670613403
29,avarua,-21.2078,-159.775,25.03,88,100,4.63,CK,1670613569
30,katsuura,35.1333,140.3,10.86,81,97,3.78,JP,1670613569
31,awjilah,29.1081,21.2869,19.08,46,0,3.17,LY,1670613570
32,kourou,5.1552,-52.6478,28.03,73,80,2.94,GF,1670613570
33,adwa,14.1646,38.8955,17.35,63,17,2.02,ET,1670613571
34,sabang,5.8933,95.3214,26.36,79,100,5.11,ID,1670613571
35,mahebourg,-20.4081,57.7,25.16,73,75,4.12,MU,1670613571
36,fairbanks,64.8378,-147.7164,-10.02,84,100,5.14,US,1670613300
37,butaritari,3.0707,172.7902,27.5,78,36,8.72,KI,1670613572
38,kapaa,22.0752,-159.319,26.18,65,75,7.72,US,1670613572
39,ilulissat,69.2167,-51.1,5.01,38,75,5.66,GL,1670613573
40,sorong,-0.8833,131.25,24.93,90,100,1.1,ID,1670613573
41,chase,50.8165,-119.6857,-1.07,89,69,1.24,CA,1670613574
42,port elizabeth,-33.918,25.5701,22.83,92,20,11.32,ZA,1670613574
43,kupang,-10.1667,123.5833,25.62,77,100,1.67,ID,1670613574
44,cherskiy,68.75,161.3,-30.2,98,100,2.23,RU,1670613575
45,atuona,-9.8,-139.0333,24.76,75,22,3.8,PF,1670613575
46,tiruchchirappalli,10.8167,78.6833,23.06,73,75,4.12,IN,1670613576
47,mollendo,-17.0231,-72.0147,19.81,87,100,2.14,PE,1670613576
48,atbasar,51.8,68.3333,-17.02,91,77,3.03,KZ,1670613577
49,krasnoselkup,65.7,82.4667,-26.08,97,100,1.82,RU,1670613577
50,ko samui,9.5357,99.9357,26.7,75,100,1.42,TH,1670613577
51,bambous virieux,-20.3428,57.7575,25.14,73,75,4.12,MU,1670613578
52,rocha,-34.4833,-54.3333,40.14,16,8,2.82,UY,1670613578
53,taoudenni,22.6783,-3.9836,28.34,12,9,2.53,ML,1670613579
54,oshikango,-17.4,15.8833,28.88,25,83,1.8,NA,1670613579
55,santander jimenez,24.2167,-98.4667,29.28,45,0,4.89,MX,1670613579
56,conceicao da barra,-18.5933,-39.7322,27.55,77,45,2.57,BR,1670613580
57,souillac,-20.5167,57.5167,25.21,73,75,4.12,MU,1670613580
58,port augusta,-32.5,137.7667,23.52,24,100,2.88,AU,1670613581
59,vaini,-21.2,-175.2,25.09,94,75,4.12,TO,1670613582
60,verkhnetulomskiy,68.6073,31.7962,-8.93,82,100,5.34,RU,1670613582
61,okhotsk,59.3833,143.3,-30.45,83,82,4.46,RU,1670613582
62,rio gallegos,-51.6226,-69.2181,13.97,38,100,7.76,AR,1670613583
63,utica,43.1009,-75.2327,6.31,76,0,3.09,US,1670613583
64,cabo san lucas,22.8909,-109.9124,27.56,61,0,3.09,MX,1670613342
65,vanavara,60.34,102.2797,-15.52,94,100,3.89,RU,1670613584
66,bluff,-46.6,168.3333,11.85,92,100,0.64,NZ,1670613584
67,aleksandrovskiy zavod,50.9237,117.9374,-23.91,99,37,2.22,RU,1670613585
68,mataura,-46.1927,168.8643,12.64,93,100,1.01,NZ,1670613585
69,qaanaaq,77.484,-69.3632,-16.74,85,100,2.2,GL,1670613585
70,airai,-8.9266,125.4092,15.24,56,100,1.14,TL,1670613586
71,busselton,-33.65,115.3333,11.02,84,5,3.01,AU,1670613586
72,makakilo city,21.3469,-158.0858,25.25,56,40,9.77,US,1670613587
73,montepuez,-13.1256,38.9997,23.47,70,34,3.21,MZ,1670613588
74,banda aceh,5.5577,95.3222,24.51,85,100,4.1,ID,1670613588
75,berlevag,70.8578,29.0864,-3.11,80,100,0.51,NO,1670613588
76,morant bay,17.8815,-76.4093,30.79,65,19,4.67,JM,1670613589
77,maniitsoq,65.4167,-52.9,1.42,82,100,13.2,GL,1670613589
78,avera,33.194,-82.5271,20.21,81,100,1.19,US,1670613589
79,cayenne,4.9333,-52.3333,28.02,78,31,3.6,GF,1670613590
80,fortuna,40.5982,-124.1573,7.97,88,40,10.29,US,1670613590
81,thompson,55.7435,-97.8558,-12.07,92,100,4.48,CA,1670613315
82,severo-kurilsk,50.6789,156.125,-2.52,64,98,9.68,RU,1670613590
83,usinsk,65.9939,57.5281,-23.14,97,16,4.78,RU,1670613591
84,svetlaya,46.5389,138.3297,-8.97,75,16,2.75,RU,1670613592
85,port alfred,-33.5906,26.891,23.48,90,91,6.7,ZA,1670613592
86,mackenzie,55.2999,-123.1698,-5.88,86,100,3.09,CA,1670613593
87,torbay,47.6666,-52.7314,3.75,97,100,6.17,CA,1670613593
88,khatanga,71.9667,102.5,-33.45,100,100,1.37,RU,1670613593
89,tuatapere,-46.1333,167.6833,12.46,93,100,1.72,NZ,1670613594
90,victoria,22.2855,114.1577,18.3,77,2,3.8,HK,1670613461
91,touros,-5.1989,-35.4608,28.05,69,98,5.99,BR,1670613485
92,kahului,20.8947,-156.47,25.47,69,20,9.77,US,1670613595
93,le locle,47.0595,6.7523,0.48,100,100,0.0,CH,1670613595
94,hilo,19.7297,-155.09,24.51,77,20,4.12,US,1670613596
95,lazaro cardenas,17.9583,-102.2,28.35,65,0,3.8,MX,1670613596
96,santa cruz,-17.8,-63.1667,36.03,46,75,11.32,BO,1670613494
97,santa maria,-29.6842,-53.8069,38.13,18,65,4.21,BR,1670613441
98,bataipora,-22.2953,-53.2711,28.06,69,92,1.2,BR,1670613597
99,casino,-28.8667,153.05,17.66,96,100,1.38,AU,1670613597
100,pevek,69.7008,170.3133,-21.63,90,100,2.57,RU,1670613597
101,sao joao do piaui,-8.3581,-42.2467,36.68,20,100,2.14,BR,1670613598
102,ostrovnoy,68.0531,39.5131,-6.49,84,100,10.65,RU,1670613598
103,talnakh,69.4865,88.3972,-29.3,100,22,1.19,RU,1670613598
104,chokurdakh,70.6333,147.9167,-27.17,97,100,2.91,RU,1670613599
105,weihe,32.9952,105.3247,2.9,79,79,1.78,CN,1670613599
106,saint-philippe,-21.3585,55.7679,24.77,85,20,4.86,RE,1670613599
107,komatipoort,-25.4332,31.9548,24.47,80,6,2.2,ZA,1670613600
108,ugoofaaru,5.6667,73.0,27.69,75,100,7.27,MV,1670613600
109,mount gambier,-37.8333,140.7667,6.87,82,0,2.57,AU,1670613601
110,marsabit,2.3284,37.9899,20.76,63,55,4.83,KE,1670613601
111,areia branca,-4.9561,-37.1369,33.11,67,16,8.35,BR,1670613602
112,cockburn town,21.4612,-71.1419,26.98,54,40,5.14,TC,1670613603
113,new norfolk,-42.7826,147.0587,10.72,70,34,1.06,AU,1670613603
114,muravlenko,63.7898,74.523,-25.58,97,99,7.79,RU,1670613603
115,guerrero negro,27.9769,-114.0611,19.1,48,0,6.06,MX,1670613604
116,sambava,-14.2667,50.1667,24.55,86,5,5.57,MG,1670613604
117,praia,14.9215,-23.5087,25.3,73,20,8.23,CV,1670613468
118,vestmannaeyjar,63.4427,-20.2734,1.62,56,0,3.3,IS,1670613605
119,faanui,-16.4833,-151.75,26.7,73,41,4.13,PF,1670613605
120,lluta,-16.0147,-72.0142,15.16,66,97,5.08,PE,1670613606
121,grand gaube,-20.0064,57.6608,25.22,69,72,2.24,MU,1670613606
122,kurduvadi,18.0833,75.4333,19.04,34,72,4.42,IN,1670613606
123,pedernales,18.0384,-71.744,26.46,60,0,2.77,DO,1670613607
124,ancud,-41.8697,-73.8203,15.5,71,21,4.82,CL,1670613557
125,lensk,60.7253,114.9278,-16.23,89,100,5.51,RU,1670613607
126,piedmont,37.8244,-122.2316,13.01,82,75,1.34,US,1670613608
127,ixtapa,20.7,-105.2,28.46,61,0,3.6,MX,1670613608
128,vila velha,-20.3297,-40.2925,28.97,82,20,4.63,BR,1670613609
129,lata,40.1629,-8.3327,12.73,98,32,1.37,PT,1670613610
130,belize,17.25,-88.75,27.18,93,27,1.28,BZ,1670613610
131,carbonear,47.7332,-53.2148,4.22,95,11,5.9,CA,1670613322
132,manica,49.0,-1.1667,-0.04,89,74,1.08,FR,1670613611
133,cape town,-33.9258,18.4232,21.72,73,40,4.12,ZA,1670613358
134,sao joao da barra,-21.6403,-41.0511,29.05,78,2,5.61,BR,1670613611
135,srednekolymsk,67.45,153.6833,-40.33,96,87,3.86,RU,1670613612
136,cidreira,-30.1811,-50.2056,24.8,74,0,5.74,BR,1670613613
137,zhigansk,66.7697,123.3711,-30.87,96,100,4.19,RU,1670613613
138,namibe,-15.1961,12.1522,21.51,65,98,3.63,AO,1670613613
139,tuktoyaktuk,69.4541,-133.0374,-28.0,76,75,3.6,CA,1670613614
140,ribeira grande,38.5167,-28.7,16.22,94,75,14.31,PT,1670613615
141,flinders,-34.5833,150.8552,11.7,81,92,2.82,AU,1670613615
142,kautokeino,69.0125,23.0412,-16.13,96,75,5.05,NO,1670613615
143,hofn,64.2539,-15.2082,1.47,67,9,8.77,IS,1670613616
144,burnie,-41.0667,145.9167,9.74,86,15,4.18,AU,1670613616
145,upata,8.0086,-62.3989,26.77,69,100,1.66,VE,1670613617
146,hambantota,6.1241,81.1185,24.9,85,100,5.33,LK,1670613617
147,derzhavinsk,51.1,66.3167,-16.52,91,27,2.83,KZ,1670613618
148,danville,36.586,-79.395,11.35,74,100,2.57,US,1670613618
149,ponta delgada,37.7333,-25.6667,17.5,82,40,10.29,PT,1670613618
150,hasaki,35.7333,140.8333,4.22,76,98,4.78,JP,1670613619
151,copiapo,-27.3667,-70.3333,20.83,36,51,5.57,CL,1670613619
152,carnarvon,-24.8667,113.6333,19.57,69,0,8.78,AU,1670613619
153,ambovombe,-25.1667,46.0833,23.74,82,33,8.74,MG,1670613620
154,havoysund,70.9963,24.6622,-0.87,84,71,3.98,NO,1670613620
155,sioux lookout,50.1001,-91.917,-5.96,93,100,2.57,CA,1670613621
156,dudinka,69.4058,86.1778,-29.41,95,17,3.41,RU,1670613621
157,puerto ayora,-0.7393,-90.3518,25.98,87,98,2.68,EC,1670613621
158,ponta do sol,32.6667,-17.1,19.45,81,100,4.09,PT,1670613622
159,saskylakh,71.9167,114.0833,-29.17,97,100,2.38,RU,1670613622
160,clyde river,70.4692,-68.5914,-15.87,78,100,7.2,CA,1670613623
161,chumikan,54.7183,135.315,-21.01,91,14,4.96,RU,1670613623
162,laguna,38.421,-121.4238,11.71,82,75,2.57,US,1670613623
163,muros,42.7762,-9.0603,11.16,80,18,7.48,ES,1670613624
164,grindavik,63.8424,-22.4338,0.26,69,20,6.69,IS,1670613624
165,minab,27.1467,57.0801,24.18,23,31,3.09,IR,1670613625
166,fort nelson,58.8053,-122.7002,-24.23,70,40,0.0,CA,1670613625
167,bom jesus,-9.0744,-44.3586,34.98,27,97,2.53,BR,1670613496
168,eureka,40.8021,-124.1637,8.12,86,100,4.47,US,1670613465
169,chuy,-33.6971,-53.4616,33.61,31,1,4.46,UY,1670613626
170,gazojak,41.1875,61.4036,-5.84,43,0,5.33,TM,1670613626
171,moose factory,51.2585,-80.6094,-18.01,55,0,0.0,CA,1670613627
172,saldanha,-33.0117,17.9442,20.03,87,0,1.22,ZA,1670613627
173,alofi,-19.0595,-169.9187,25.94,94,75,1.54,NU,1670613628
174,basco,20.4487,121.9702,25.67,77,64,10.76,PH,1670613628
175,arraial do cabo,-22.9661,-42.0278,27.98,69,0,8.23,BR,1670613629
176,lahij,13.1667,44.5833,21.57,78,35,2.22,YE,1670613629
177,zaysan,47.4667,84.8667,-13.41,96,100,0.58,KZ,1670613629
178,morondava,-20.2833,44.2833,27.83,83,42,3.91,MG,1670613630
179,canberra,-35.2835,149.1281,7.99,84,75,2.57,AU,1670613468
180,kysyl-syr,63.8986,122.7617,-28.4,98,100,1.88,RU,1670613630
181,rawson,-43.3002,-65.1023,25.01,21,27,9.39,AR,1670613631
182,mizdah,31.4451,12.9801,20.76,35,95,2.84,LY,1670613631
183,jamestown,42.097,-79.2353,2.62,55,0,4.63,US,1670613632
184,babati,-4.2167,35.75,19.07,61,100,1.44,TZ,1670613632
185,kikwit,-5.041,18.8162,20.93,90,57,1.16,CD,1670613633
186,saint-joseph,-21.3667,55.6167,24.21,83,24,5.04,RE,1670613633
187,geraldton,-28.7667,114.6,14.23,82,0,3.6,AU,1670613581
188,bilma,18.6853,12.9164,21.72,16,0,2.59,NE,1670613634
189,sonda,59.3436,26.8364,-9.77,94,51,2.42,EE,1670613634
190,aleksin,54.51,37.08,-2.54,97,100,2.04,RU,1670613635
191,narsaq,60.9167,-46.05,-6.88,73,0,3.17,GL,1670613635
192,lebu,-37.6167,-73.65,18.03,75,100,3.66,CL,1670613636
193,caravelas,-17.7125,-39.2481,27.06,84,18,3.06,BR,1670613636
194,kazachinskoye,57.6953,93.2761,-11.88,91,100,5.25,RU,1670613637
195,san patricio,28.017,-97.5169,28.05,59,48,5.51,US,1670613637
196,peniche,39.3558,-9.3811,15.31,90,6,7.13,PT,1670613637
197,pacific grove,36.6177,-121.9166,12.45,92,100,0.45,US,1670613638
198,college station,30.628,-96.3344,27.1,66,75,2.06,US,1670613602
199,richards bay,-28.783,32.0377,23.6,87,8,4.04,ZA,1670613639
200,ahipara,-35.1667,173.1667,18.42,89,100,3.05,NZ,1670613639
201,port pirie,-33.1833,138.0167,21.13,31,92,2.98,AU,1670613639
202,nampula,-15.1165,39.2666,21.63,91,100,0.76,MZ,1670613640
203,bethel,41.3712,-73.414,8.59,53,0,4.12,US,1670613640
204,kruisfontein,-34.0033,24.7314,21.6,63,100,5.01,ZA,1670613641
205,lodja,-3.4833,23.4333,20.04,92,98,1.04,CD,1670613641
206,tigil,57.8,158.6667,-26.59,94,17,2.18,RU,1670613641
207,bengkulu,-3.8004,102.2655,23.58,89,100,2.55,ID,1670613642
208,burns lake,54.2331,-125.7533,-11.32,83,100,1.78,CA,1670613642
209,luderitz,-26.6481,15.1594,18.11,84,0,7.11,NA,1670613642
210,biak,-0.9131,122.8766,24.18,81,100,0.91,ID,1670613643
211,margate,51.3813,1.3862,2.05,75,28,1.79,GB,1670613643
212,kavieng,-2.5744,150.7967,27.47,77,100,3.93,PG,1670613644
213,baykit,61.67,96.37,-17.38,98,100,1.8,RU,1670613644
214,constitucion,-35.3333,-72.4167,20.52,67,59,6.85,CL,1670613431
215,tual,-5.6667,132.75,28.4,71,100,2.35,ID,1670613645
216,tres arroyos,-38.3739,-60.2798,31.88,18,5,6.69,AR,1670613645
217,sombrerete,23.6333,-103.65,19.5,15,8,1.31,MX,1670613645
218,vizinga,61.0749,50.1031,-10.72,97,100,1.1,RU,1670613646
219,yinchuan,38.4681,106.2731,-5.83,36,91,3.78,CN,1670613646
220,porto novo,6.4965,2.6036,26.98,80,0,3.24,BJ,1670613647
221,kollam,8.8833,76.6,24.32,75,96,4.33,IN,1670613647
222,charters towers,-20.1,146.2667,23.72,82,0,4.25,AU,1670613647
223,los llanos de aridane,28.6585,-17.9182,20.86,98,40,1.03,ES,1670613433
224,tasiilaq,65.6145,-37.6368,-6.91,60,17,3.41,GL,1670613648
225,at-bashi,41.1702,75.8106,-14.52,89,81,1.05,KG,1670613648
226,sukhobezvodnoye,57.0491,44.8891,-5.4,95,100,3.51,RU,1670613649
227,adelaide,-34.9333,138.6,20.72,37,0,6.69,AU,1670613474
228,polur,12.5,79.1333,20.38,91,100,9.19,IN,1670613649
229,dickinson,29.4608,-95.0513,28.96,73,40,4.12,US,1670613650
230,mar del plata,-38.0023,-57.5575,26.16,60,0,8.49,AR,1670613650
231,matara,5.9485,80.5353,24.47,90,100,3.75,LK,1670613650
232,kamaishi,39.2667,141.8833,4.41,81,8,2.79,JP,1670613651
233,shenjiamen,29.9576,122.298,12.82,92,100,6.2,CN,1670613651
234,yura,-16.2522,-71.6797,13.29,77,40,5.14,PE,1670613652
235,lompoc,34.6391,-120.4579,17.0,68,0,1.79,US,1670613652
236,tura,25.5198,90.2201,15.47,85,0,1.42,IN,1670613653
237,hami,42.8,93.45,-3.7,42,100,2.46,CN,1670613653
238,bay roberts,47.5999,-53.2648,4.17,97,15,6.71,CA,1670613653
239,nanortalik,60.1432,-45.2371,-4.51,81,2,3.05,GL,1670613654
240,saint-francois,46.4154,3.9054,0.93,93,100,2.57,FR,1670613654
241,linqu,36.5156,118.5397,4.1,84,74,1.66,CN,1670613655
242,zlocieniec,53.5329,16.0113,-2.28,92,11,1.5,PL,1670613655
243,abidjan,5.3094,-4.0197,27.98,89,20,2.57,CI,1670613655
244,elizabeth city,36.2946,-76.2511,13.01,65,100,5.14,US,1670613653
245,buala,-8.145,159.5921,26.31,82,100,1.53,SB,1670613656
246,mayahi,13.9553,7.6712,22.53,13,69,5.0,NE,1670613656
247,kodiak,57.79,-152.4072,-3.27,50,0,14.4,US,1670613656
248,barrow,71.2906,-156.7887,-8.99,79,100,10.8,US,1670613657
249,kloulklubed,7.0419,134.2556,23.28,72,84,2.9,PW,1670613657
250,east london,-33.0153,27.9116,23.92,88,49,5.8,ZA,1670613657
251,ulaangom,49.9811,92.0667,-25.43,97,100,0.65,MN,1670613658
252,polis,35.0367,32.4264,14.9,78,5,1.35,CY,1670613659
253,dikson,73.5069,80.5464,-17.92,94,100,5.67,RU,1670613659
254,haines junction,60.7522,-137.5108,-11.03,67,100,2.06,CA,1670613659
255,lovozero,68.005,35.0117,-9.12,93,100,6.15,RU,1670613660
256,brae,60.3964,-1.353,4.28,63,99,7.28,GB,1670613660
257,springfield,37.2153,-93.2982,11.41,66,0,5.14,US,1670613603
258,maloy,61.9353,5.1136,-2.15,56,7,3.28,NO,1670613661
259,yar-sale,66.8333,70.8333,-23.04,96,64,5.47,RU,1670613661
260,mora,11.0461,14.1401,23.49,19,0,2.92,CM,1670613661
261,azul,-36.777,-59.8585,38.51,17,12,6.27,AR,1670613662
262,sinnamary,5.3833,-52.95,27.62,74,100,3.19,GF,1670613662
263,verkh-chebula,56.0308,87.6218,-14.97,77,100,8.15,RU,1670613662
264,altay,47.8667,88.1167,-12.07,86,100,0.1,CN,1670613663
265,kangaatsiaq,68.3065,-53.4641,-1.25,78,100,3.02,GL,1670613663
266,kiri buru,22.0833,85.35,15.33,40,96,0.41,IN,1670613664
267,vardo,70.3705,31.1107,-1.01,74,75,11.83,NO,1670613664
268,iquitos,-3.7481,-73.2472,28.02,89,75,2.06,PE,1670613664
269,hit,33.6416,42.8251,14.69,47,8,2.04,IQ,1670613665
270,tumut,-35.3,148.2167,6.94,89,0,1.56,AU,1670613665
271,tocopilla,-22.092,-70.1979,21.4,70,72,2.75,CL,1670613471
272,qandala,11.472,49.8728,24.35,75,97,2.32,SO,1670613666
273,portland,45.5234,-122.6762,7.12,92,100,5.66,US,1670613613
274,itarema,-2.9248,-39.9167,29.07,64,71,7.27,BR,1670613666
275,pathein,16.7833,94.7333,23.97,83,6,1.84,MM,1670613666
276,minden,52.2833,8.9167,-1.48,69,73,1.03,DE,1670613667
277,port-gentil,-0.7193,8.7815,27.98,78,20,4.63,GA,1670613667
278,eslov,55.8393,13.3039,0.82,95,100,0.92,SE,1670613668
279,camacha,33.0833,-16.3333,17.68,77,40,6.17,PT,1670613668
280,samarinda,-0.5,117.15,23.2,90,100,0.68,ID,1670613668
281,manaure,11.7751,-72.4445,27.7,67,95,5.91,CO,1670613669
282,medea,36.2642,2.7539,12.35,83,100,2.68,DZ,1670613669
283,longyearbyen,78.2186,15.6401,-8.09,93,20,5.66,SJ,1670613670
284,boissevain,49.2306,-100.0559,-2.98,73,6,4.87,CA,1670613670
285,jalu,29.0331,21.5482,18.87,48,0,3.03,LY,1670613670
286,rubano,45.4209,11.8072,7.62,97,99,1.79,IT,1670613671
287,ayan,56.45,138.1667,-18.75,71,55,2.41,RU,1670613671
288,tessalit,20.1986,1.0114,24.58,13,0,4.81,ML,1670613672
289,leningradskiy,69.3833,178.4167,-24.58,92,57,2.47,RU,1670613672
290,vanimo,-2.6741,141.3028,24.86,89,96,1.81,PG,1670613672
291,sechura,-5.5569,-80.8222,25.77,54,98,5.61,PE,1670613673
292,bacolod,10.6667,122.95,24.39,91,100,0.31,PH,1670613673
293,odienne,9.51,-7.5692,26.49,29,5,1.44,CI,1670613673
294,nome,64.5011,-165.4064,-6.96,86,100,7.2,US,1670613674
295,hirara,24.8,125.2833,23.16,77,96,13.36,JP,1670613580
296,gouyave,12.1646,-61.7296,28.43,61,40,0.0,GD,1670613674
297,jinchang,38.4953,102.1739,-6.66,59,82,2.08,CN,1670613675
298,bedesa,8.9,40.7833,16.57,33,10,2.04,ET,1670613675
299,delijan,33.9905,50.6838,3.92,74,98,1.07,IR,1670613675
300,batemans bay,-35.7167,150.1833,8.84,71,94,1.8,AU,1670613676
301,seymchan,62.8833,152.4333,-46.16,99,66,0.19,RU,1670613676
302,vila franca do campo,37.7167,-25.4333,17.33,88,100,7.62,PT,1670613677
303,hamilton,39.1834,-84.5333,12.03,71,100,5.66,US,1670613536
304,gizo,-8.103,156.8419,27.23,79,96,2.3,SB,1670613677
305,sao filipe,14.8961,-24.4956,25.18,72,5,3.15,CV,1670613678
306,sola,-13.8833,167.55,24.37,100,100,0.0,VU,1670613678
307,chake chake,-5.2459,39.7666,25.58,84,9,3.42,TZ,1670613679
308,bonavista,48.6499,-53.1147,2.99,89,100,6.22,CA,1670613679
309,novita,4.9551,-76.6053,26.26,88,68,1.94,CO,1670613680
310,san luis,-33.295,-66.3356,32.95,36,76,5.51,AR,1670613644
311,asmara,15.3333,38.9333,12.06,86,76,2.16,ER,1670613681
312,lethem,3.3803,-59.7968,30.65,57,94,4.35,GY,1670613681
313,college,64.8569,-147.8028,-10.03,82,75,3.6,US,1670613682
314,gazanjyk,39.2446,55.5154,-1.08,43,3,9.05,TM,1670613682
315,henties bay,-22.116,14.2845,16.16,90,0,3.93,NA,1670613682
316,nuuk,64.1835,-51.7216,3.34,60,40,13.38,GL,1670613683
317,parabel,58.6978,81.4825,-12.76,92,100,4.7,RU,1670613683
318,anadyr,64.75,177.4833,-15.72,78,0,4.0,RU,1670613683
319,kavaratti,10.5669,72.642,27.48,69,100,4.92,IN,1670613559
320,dunedin,-45.8742,170.5036,14.11,82,0,2.17,NZ,1670613392
321,beloha,-25.1667,45.05,23.86,80,6,8.34,MG,1670613684
322,marsa matruh,31.3525,27.2453,17.11,88,40,2.57,EG,1670613684
323,show low,34.2542,-110.0298,11.16,43,0,7.2,US,1670613685
324,jining,35.405,116.5814,4.09,85,8,1.38,CN,1670613685
325,esperance,-33.8667,121.9,15.54,78,0,4.26,AU,1670613686
326,kjollefjord,70.9457,27.3465,-0.97,86,20,0.0,NO,1670613686
327,north branch,45.5113,-92.9802,0.2,82,89,1.79,US,1670613646
328,sinjar,36.3209,41.8754,11.04,62,6,2.44,IQ,1670613687
329,arlit,18.7369,7.3853,23.91,12,0,3.89,NE,1670613687
330,mnogovershinnyy,53.9353,139.9242,-23.04,93,32,1.33,RU,1670613688
331,pavino,59.1139,46.1414,-8.65,95,100,2.14,RU,1670613688
332,broome,42.2506,-75.833,4.45,69,40,4.12,US,1670613688
333,iqaluit,63.7506,-68.5145,-20.15,77,75,1.03,CA,1670613689
334,conceicao do araguaia,-8.2578,-49.2647,28.76,72,100,1.65,BR,1670613689
335,newport,51.5877,-2.9984,1.41,76,7,2.08,GB,1670613611
336,antofagasta,-23.65,-70.4,21.6,69,100,2.85,CL,1670613690
337,praya,14.9215,-23.5087,25.3,73,20,8.23,CV,1670613690
338,sitka,57.0531,-135.33,0.94,86,100,5.14,US,1670613691
339,mudgee,-32.5943,149.5871,12.1,86,22,3.45,AU,1670613587
340,poum,-20.2333,164.0167,26.88,79,0,4.1,NC,1670613691
341,manokwari,-0.8667,134.0833,25.21,82,100,1.42,ID,1670613692
342,kameoka,35.0,135.5833,7.3,68,79,1.08,JP,1670613653
343,shymkent,42.3,69.6,-14.67,78,2,1.0,KZ,1670613448
344,powell river,49.8496,-124.5361,5.66,93,100,5.66,CA,1670613606
345,kaitangata,-46.2817,169.8464,12.86,95,73,2.45,NZ,1670613693
346,klaksvik,62.2266,-6.589,2.51,72,100,13.97,FO,1670613693
347,torata,-17.0769,-70.8433,19.15,57,79,4.68,PE,1670613694
348,austin,30.2672,-97.7431,27.24,67,20,4.12,US,1670613500
349,mineiros,-17.5694,-52.5511,30.91,41,90,1.87,BR,1670613694
350,churapcha,62.0025,132.4325,-36.69,100,99,0.59,RU,1670613695
351,molchanovo,57.5817,83.7692,-13.16,89,100,5.08,RU,1670613695
352,santander,43.4647,-3.8044,11.37,90,100,7.15,ES,1670613695
353,eregli,37.5133,34.0467,7.3,61,74,0.6,TR,1670613696
354,husavik,66.0449,-17.3389,-0.66,82,100,3.78,IS,1670613696
355,saint george,37.1041,-113.5841,10.24,54,0,1.34,US,1670613697
356,guasdualito,7.2424,-70.7324,30.0,58,61,2.06,VE,1670613697
357,shimoda,34.6667,138.95,7.28,58,100,5.85,JP,1670613698
358,walvis bay,-22.9575,14.5053,19.53,68,0,4.63,NA,1670613698
359,andenes,69.3143,16.1194,-1.01,55,0,8.23,NO,1670613699
360,taperoa,-7.2075,-36.8267,29.9,41,100,7.83,BR,1670613699
361,leeton,-34.5667,146.4,8.27,77,0,3.34,AU,1670613699
362,sibolga,1.7427,98.7792,23.42,88,100,1.53,ID,1670613700
363,whitehorse,60.7161,-135.0538,-11.57,72,75,4.12,CA,1670613697
364,hithadhoo,-0.6,73.0833,27.77,77,100,6.98,MV,1670613701
365,tatawin,32.9297,10.4518,21.06,29,100,3.82,TN,1670613701
366,imeni poliny osipenko,52.4201,136.4853,-22.74,100,99,1.11,RU,1670613701
367,pangnirtung,66.1451,-65.7125,-8.0,86,100,0.0,CA,1670613702
368,sembakung,3.8167,117.25,22.82,99,99,0.89,ID,1670613702
369,salalah,17.0151,54.0924,24.05,64,0,1.03,OM,1670613703
370,miloslavskoye,53.5815,39.4399,-1.46,97,100,5.66,RU,1670613703
371,ginir,7.1333,40.7,15.19,43,1,2.63,ET,1670613704
372,hauterive,46.0901,3.4459,1.42,96,100,1.13,FR,1670613704
373,ochamchira,42.7121,41.4721,10.42,65,100,2.53,GE,1670613705
374,baraboo,43.4711,-89.7443,1.67,95,100,5.66,US,1670613555
375,panguna,-6.3164,155.4848,19.66,95,99,0.63,PG,1670613706
376,udachnyy,66.4167,112.4,-31.42,74,100,2.11,RU,1670613706
377,ballina,-28.8667,153.5667,17.79,99,100,2.06,AU,1670613706
378,lavrentiya,65.5833,-171.0,-9.07,99,52,2.73,RU,1670613707
379,nanakuli,21.3906,-158.1547,26.04,53,40,5.66,US,1670613707
380,bridlington,54.0831,-0.1919,0.5,89,96,1.79,GB,1670613708
381,san cristobal,7.7669,-72.225,22.1,50,54,1.21,VE,1670613709
382,puerto escondido,15.85,-97.0667,30.46,58,20,1.54,MX,1670613453
383,micheweni,-4.9667,39.8333,26.56,81,34,4.06,TZ,1670613709
384,whyalla,-33.0333,137.5833,23.11,36,100,5.07,AU,1670613710
385,edd,13.9297,41.6925,25.63,79,15,3.1,ER,1670613710
386,veraval,20.9,70.3667,22.25,52,0,2.57,IN,1670613710
387,ishigaki,24.3448,124.1572,22.07,88,75,11.32,JP,1670613711
388,bardiyah,31.7561,25.0865,18.1,86,0,4.06,LY,1670613711
389,tiksi,71.6872,128.8694,-31.9,100,100,1.44,RU,1670613712
390,norman wells,65.282,-126.8329,-24.98,70,100,1.54,CA,1670613712
391,kardla,58.9978,22.7492,-2.75,98,100,4.78,EE,1670613713
392,port lincoln,-34.7333,135.8667,17.84,76,61,4.77,AU,1670613713
393,businga,3.3333,20.8833,25.06,68,76,0.72,CD,1670613714
394,grimshaw,56.1834,-117.6027,-8.21,86,20,1.54,CA,1670613714
395,pilar,-9.5972,-35.9567,27.96,64,56,6.14,BR,1670613513
396,kualakapuas,-3.0091,114.3876,22.97,95,55,1.01,ID,1670613715
397,smithers,54.7804,-127.1743,-6.82,86,75,1.54,CA,1670613716
398,taltal,-25.4,-70.4833,21.1,68,49,2.67,CL,1670613621
399,umkomaas,-30.2067,30.7978,24.78,88,91,5.8,ZA,1670613716
400,lapua,62.9693,23.0088,-5.62,97,82,1.55,FI,1670613717
401,lorengau,-2.0226,147.2712,27.27,76,100,2.52,PG,1670613717
402,doha,25.2867,51.5333,21.99,48,0,4.12,QA,1670613662
403,trelew,-43.249,-65.3051,27.68,11,6,13.66,AR,1670613717
404,matias barbosa,-21.8692,-43.3194,30.54,62,5,2.06,BR,1670613718
405,quatre cocos,-20.2078,57.7625,25.06,84,41,4.47,MU,1670613718
406,yanam,16.7333,82.2167,23.41,91,100,5.8,IN,1670613719
407,nhulunbuy,-12.2333,136.7667,25.34,83,100,0.0,AU,1670613719
408,plainfield,40.6168,-74.4173,9.03,47,0,4.12,US,1670613719
409,yaan,7.3833,8.5667,27.61,18,0,2.13,NG,1670613720
410,kabompo,-13.5927,24.2008,17.53,95,93,0.72,ZM,1670613721
411,charlestown,-32.95,151.6667,17.63,84,94,1.79,AU,1670613679
412,pitimbu,-7.4706,-34.8086,29.33,67,11,4.45,BR,1670613536
413,coquimbo,-29.9533,-71.3436,21.85,68,0,7.2,CL,1670613539
414,palimbang,6.2106,124.1894,25.18,82,100,0.96,PH,1670613722
415,lagoa,39.05,-27.9833,15.45,90,100,14.89,PT,1670613722
416,olafsvik,64.8945,-23.7142,1.06,73,63,7.91,IS,1670613723
417,fort-shevchenko,44.5086,50.263,-1.48,55,0,10.2,KZ,1670613723
418,aranos,-24.1333,19.1167,24.09,44,100,6.52,NA,1670613724
419,pilot butte,50.4668,-104.4178,-9.08,79,75,7.2,CA,1670613724
420,hobyo,5.3505,48.5268,26.27,77,33,6.65,SO,1670613724
421,north bend,43.4065,-124.2243,8.37,96,100,7.2,US,1670613461
422,qasigiannguit,68.8193,-51.1922,5.14,73,95,3.17,GL,1670613725
423,yarada,17.65,83.2667,24.0,75,100,8.61,IN,1670613726
424,zhangjiakou,40.81,114.8794,-8.68,41,0,5.91,CN,1670613726
425,progreso,21.2833,-89.6667,31.17,64,26,5.87,MX,1670613727
426,naze,28.3667,129.4833,17.51,78,89,8.8,JP,1670613728
427,miles city,46.4083,-105.8406,-13.46,92,0,0.0,US,1670613636
428,grand forks,47.9417,-97.4337,-6.04,93,100,4.12,US,1670613728
429,zelenoborskiy,66.845,32.3622,-7.8,90,100,5.65,RU,1670613728
430,oslob,9.5211,123.4315,25.99,83,97,1.34,PH,1670613729
431,healesville,-37.65,145.5167,8.33,99,8,0.96,AU,1670613729
432,atasu,48.6814,71.6433,-23.1,100,99,3.12,KZ,1670613730
433,nemuro,43.3236,145.575,1.17,58,0,3.7,JP,1670613730
434,rincon,32.296,-81.2354,21.98,68,100,3.6,US,1670613565
435,skjervoy,70.0311,20.9714,-4.0,63,16,7.6,NO,1670613731
436,turayf,31.6725,38.6637,11.14,93,75,6.17,SA,1670613731
437,prince rupert,54.3161,-130.3201,3.83,84,100,10.8,CA,1670613732
438,abu kamal,34.4506,40.9171,15.04,58,17,1.83,SY,1670613732
439,inhambane,-23.865,35.3833,25.99,83,40,4.63,MZ,1670613733
440,pervomayskoye,43.919,46.7102,6.39,71,100,8.35,RU,1670613733
441,beringovskiy,63.05,179.3167,-9.41,88,100,1.1,RU,1670613733
442,belle glade,26.6845,-80.6676,28.34,64,23,3.74,US,1670613671
443,lasa,46.6166,10.7002,3.49,97,100,0.83,IT,1670613734
444,sol-iletsk,51.1631,54.9918,-15.77,90,10,1.98,RU,1670613734
445,ustye,59.6304,39.736,-6.18,95,100,3.27,RU,1670613735
446,kholmogory,64.2229,41.656,-9.3,96,91,2.52,RU,1670613735
447,hede,33.7681,120.2517,9.92,96,100,2.31,CN,1670613736
448,kudahuvadhoo,2.6708,72.8944,27.3,82,87,7.14,MV,1670613736
449,araouane,18.9048,-3.5265,25.2,10,0,4.17,ML,1670613736
450,port keats,-14.25,129.55,28.23,80,70,3.11,AU,1670613737
451,ulladulla,-35.35,150.4667,10.08,71,66,2.06,AU,1670613737
452,santa fe,-31.6333,-60.7,43.88,12,71,3.6,AR,1670613738
453,pimentel,-6.8367,-79.9342,24.16,57,20,9.77,PE,1670613738
454,tonneins,44.3921,0.3124,7.12,93,100,3.46,FR,1670613559
455,half moon bay,37.4636,-122.4286,13.83,76,0,2.57,US,1670613652
456,gushikawa,26.3544,127.8686,19.57,97,40,4.12,JP,1670613739
457,itaituba,-4.2761,-55.9836,33.09,55,20,3.09,BR,1670613739
458,beian,63.6559,9.5683,-3.88,74,0,4.12,NO,1670613739
459,broken hill,-31.95,141.4333,15.57,38,5,4.27,AU,1670613740
460,port moresby,-9.4431,147.1797,24.68,94,40,2.57,PG,1670613740
461,hervey bay,-25.2986,152.8535,22.34,77,99,5.64,AU,1670613741
462,westport,41.1415,-73.3579,9.14,47,0,4.63,US,1670613741
463,dutlwe,-23.9833,23.9,22.76,56,1,7.54,BW,1670613741
464,catamarca,-28.4696,-65.7852,39.87,27,100,3.58,AR,1670613742
465,caninde,-4.3589,-39.3117,34.68,30,44,4.79,BR,1670613742
466,balkanabat,39.5108,54.3671,0.71,53,4,5.74,TM,1670613743
467,belaya,49.029,25.7706,2.92,87,100,4.5,UA,1670613743
468,harper,4.375,-7.7169,26.66,79,1,4.13,LR,1670613744
469,manali,13.1667,80.2667,25.05,89,100,15.82,IN,1670613744
470,san cosme y damian,-27.3167,-56.35,38.1,27,31,0.11,PY,1670613745
471,pochutla,15.7432,-96.4661,31.01,41,2,3.91,MX,1670613745
472,ericeira,38.9627,-9.4156,16.54,90,13,6.25,PT,1670613746
473,bull savanna,17.8868,-77.5902,26.28,60,20,2.54,JM,1670613746
474,sungaipenuh,-2.0833,101.3833,17.53,94,100,0.56,ID,1670613746
475,gayny,60.3071,54.3241,-12.44,98,100,1.12,RU,1670613747
476,hovd,48.0056,91.6419,-16.51,77,100,0.48,MN,1670613748
477,port blair,11.6667,92.75,24.02,94,20,0.0,IN,1670613748
478,dwarka,22.2394,68.9678,23.73,53,0,4.42,IN,1670613748
479,nizwa,22.9333,57.5333,21.15,41,0,1.99,OM,1670613749
480,stromness,58.965,-3.296,3.98,60,100,11.67,GB,1670613531
481,miri,4.4148,114.0089,25.08,94,40,2.57,MY,1670613750
482,gigmoto,13.7796,124.39,25.12,91,100,1.86,PH,1670613750
483,sandwick,60.0,-1.25,3.9,60,40,8.23,GB,1670613750
484,belyy yar,53.6039,91.3903,-26.19,99,20,1.0,RU,1670613751
485,blackfalds,52.3834,-113.7853,-6.64,64,5,2.08,CA,1670613751
486,sattahip,12.6664,100.9007,28.88,83,20,2.06,TH,1670613752
487,mutis,6.2262,-77.4044,26.35,81,30,2.57,CO,1670613752
488,qaqortoq,60.7167,-46.0333,-8.01,74,0,3.19,GL,1670613752
489,nchelenge,-9.3451,28.734,20.02,87,100,1.04,ZM,1670613753
490,lebedyn,50.5852,34.4849,3.07,99,100,3.97,UA,1670613753
491,mama,58.3106,112.8986,-15.16,93,100,6.06,RU,1670613754
492,yulara,-25.2406,130.9889,29.98,28,24,1.69,AU,1670613754
493,cahors,44.4167,1.3333,6.73,95,100,1.89,FR,1670613755
494,comodoro rivadavia,-45.8667,-67.5,24.92,14,75,12.86,AR,1670613755
495,dalbandin,28.8947,64.4101,12.02,55,89,3.72,PK,1670613755
496,san policarpo,12.1791,125.5072,24.19,93,100,2.82,PH,1670613756
497,popondetta,-8.7537,148.2534,23.27,94,100,1.1,PG,1670613756
498,ravar,31.2656,56.8055,7.04,45,7,1.52,IR,1670613757
499,el dorado,38.7666,-120.5177,7.29,91,94,0.89,US,1670613757
500,kirakira,-10.4544,161.9205,26.59,81,100,0.94,SB,1670613757
501,isla mujeres,21.2311,-86.731,28.03,60,8,5.58,MX,1670613758
502,pobe,6.9801,2.6649,25.83,74,0,3.58,BJ,1670613758
503,hengshui,37.7322,115.7011,1.51,54,0,3.7,CN,1670613759
504,constantine,36.365,6.6147,16.67,59,75,3.09,DZ,1670613478
505,fethiye,36.6217,29.1164,12.93,72,9,1.71,TR,1670613759
506,aklavik,68.2191,-135.0107,-26.0,76,100,3.09,CA,1670613760
507,luanda,-8.8368,13.2343,25.59,84,63,5.93,AO,1670613492
508,pitsunda,43.1592,40.3378,11.1,67,100,3.02,GE,1670613760
509,omboue,-1.5746,9.2618,25.77,85,83,3.59,GA,1670613761
510,zhangye,38.9342,100.4517,-6.0,59,100,1.36,CN,1670613761
511,brainerd,46.358,-94.2008,-0.84,69,100,2.06,US,1670613689
512,igrim,63.1906,64.4162,-25.06,98,5,0.84,RU,1670613762
513,laurentides,46.4334,-74.9826,-3.34,54,14,3.94,CA,1670613762
514,plettenberg bay,-34.0527,23.3716,19.64,77,73,3.35,ZA,1670613762
515,paarl,-33.7338,18.9752,20.01,82,2,0.97,ZA,1670613763
516,menongue,-14.6585,17.691,18.21,91,100,4.0,AO,1670613763
517,moron,-34.6534,-58.6198,39.45,39,100,1.45,AR,1670613763
518,inyonga,-6.7167,32.0667,19.76,86,90,2.51,TZ,1670613764
519,garhi khairo,28.0606,67.9803,19.06,28,39,2.76,PK,1670613764
520,rodionovo-nesvetayskaya,47.6103,39.7121,3.64,87,100,5.55,RU,1670613765
521,faya,18.3851,42.4509,15.06,81,16,1.87,SA,1670613765
522,komsomolskiy,40.4272,71.7189,-2.6,86,100,2.06,UZ,1670613765
523,alvdal,62.1077,10.6307,-16.81,98,72,1.56,NO,1670613766
524,dingle,10.9995,122.6711,23.84,94,100,0.71,PH,1670613766
525,asfi,32.2994,-9.2372,18.45,83,100,9.76,MA,1670613766
526,rennes,48.1667,-1.6667,1.43,100,7,1.54,FR,1670613767
527,alta floresta,-9.8756,-56.0861,29.44,62,98,1.68,BR,1670613767
528,san juan,-31.5375,-68.5364,38.57,17,2,8.58,AR,1670613767
529,port shepstone,-30.7414,30.455,23.17,90,100,6.72,ZA,1670613768
530,codrington,-38.2667,141.9667,5.94,94,0,4.09,AU,1670613768
531,sangar,63.9242,127.4739,-30.91,90,100,4.07,RU,1670613768
532,korla,41.7597,86.1469,-5.1,57,60,1.12,CN,1670613769
533,dubrovnik,42.6481,18.0922,15.8,100,75,7.72,HR,1670613581
534,yenagoa,4.9247,6.2642,26.7,77,10,2.14,NG,1670613769
535,jiaocheng,24.6774,116.1389,10.17,95,21,1.45,CN,1670613770
536,kathu,7.9178,98.3332,27.05,99,97,2.47,TH,1670613649
537,nizhnevartovsk,60.9344,76.5531,-28.88,76,0,3.13,RU,1670613675
538,bathsheba,13.2167,-59.5167,29.34,76,75,2.57,BB,1670613771
539,marienburg,54.0359,19.0266,0.02,90,11,1.69,PL,1670613771
540,sokolka,53.4072,23.5023,-1.29,95,100,0.7,PL,1670613772
541,asau,46.4333,26.4,4.6,79,100,2.01,RO,1670613772
542,munsingen,48.4113,9.497,-0.82,87,99,0.62,DE,1670613772
543,marovoay,-16.1,46.6333,27.64,62,74,2.16,MG,1670613773
544,petropavlovsk-kamchatskiy,53.0452,158.6483,-15.67,66,0,7.0,RU,1670613773
545,aksarka,66.5606,67.7975,-24.81,88,34,2.81,RU,1670613773
546,padang,-0.9492,100.3543,24.54,84,100,1.05,ID,1670613774
547,meulaboh,4.1363,96.1285,24.27,84,99,1.71,ID,1670613774
548,dingli,35.8614,14.3822,19.34,82,0,5.14,MT,1670613774
